City,Lat,Lng,Max Temp,Humidity,Cloudiness,Wind Speed,Country,Date
Mahibadhoo,3.7833,72.9667,83.23,74,8,8.61,MV,1619292721
Puerto Ayora,-0.7393,-90.3518,80.6,78,75,9.22,EC,1619292723
La Santisima Trinidad,-14.8333,-64.9,78.8,94,75,8.05,BO,1619292548
Nāmagiripettai,11.4667,78.2667,79.7,75,100,4.34,IN,1619292725
Muaná,-1.5283,-49.2167,84.36,72,29,4.94,BR,1619292728
Voyvozh,62.892,54.9635,42.49,81,100,7.47,RU,1619292730
Fallon,39.4735,-118.7774,66.2,19,75,9.22,US,1619292731
Bonthe,7.5264,-12.505,81.64,76,23,10.51,SL,1619292733
Palmer,42.1584,-72.3287,71.01,19,75,11.5,US,1619292654
Ushuaia,-54.8,-68.3,55.4,54,75,5.75,AR,1619292736
Dikson,73.5069,80.5464,4.71,98,17,10.09,RU,1619292737
Nikolskoye,59.7035,30.7861,39.2,70,20,4.47,RU,1619292739
Coruripe,-10.1256,-36.1756,82.4,67,18,9.75,BR,1619292448
Butaritari,3.0707,172.7902,82.56,76,39,12.26,KI,1619292741
Bathsheba,13.2167,-59.5167,84.2,58,40,19.57,BB,1619292468
Coyhaique,-45.5752,-72.0662,57.2,62,75,8.05,CL,1619292744
Chokurdakh,70.6333,147.9167,-10.17,95,5,4.85,RU,1619292745
Naze,28.3667,129.4833,64.08,69,94,19.77,JP,1619292747
Ostrovnoy,68.0531,39.5131,36.0,99,100,4.99,RU,1619292748
Ponta do Sol,32.6667,-17.1,61.0,76,21,3.0,PT,1619292749
Klaksvík,62.2266,-6.589,46.4,81,100,6.91,FO,1619292751
Nishihara,26.1842,127.7558,68.0,88,75,5.75,JP,1619292752
Barcelos,41.5388,-8.6151,61.0,94,40,5.75,PT,1619292754
Asău,46.4333,26.4,45.0,50,57,3.62,RO,1619292755
Jamestown,42.097,-79.2353,63.0,30,1,6.91,US,1619292756
La Ronge,55.1001,-105.2842,30.2,39,100,5.75,CA,1619292758
Rikitea,-23.1203,-134.9692,78.49,74,100,17.38,PF,1619292759
Tiksi,71.6872,128.8694,30.54,93,100,11.07,RU,1619292760
Vaini,-21.2,-175.2,71.6,100,40,1.14,TO,1619292762
Berlevåg,70.8578,29.0864,33.69,70,98,13.98,NO,1619292763
Khatanga,71.9667,102.5,32.25,97,100,17.25,RU,1619292765
Havøysund,70.9963,24.6622,30.2,80,75,6.91,NO,1619292767
Usinsk,65.9939,57.5281,36.72,90,97,8.05,RU,1619292768
Bilibino,68.0546,166.4372,24.69,95,100,1.7,RU,1619292770
Camacha,33.0833,-16.3333,64.4,63,20,17.27,PT,1619292771
Punta Arenas,-53.15,-70.9167,51.8,71,40,9.22,CL,1619292764
Tuatapere,-46.1333,167.6833,46.99,91,100,5.01,NZ,1619292774
East London,-33.0153,27.9116,64.4,88,0,5.75,ZA,1619292775
Albany,42.6001,-73.9662,70.0,16,87,8.43,US,1619292585
Raudeberg,61.9875,5.1352,37.99,73,72,17.16,NO,1619292778
Bredasdorp,-34.5322,20.0403,53.6,87,87,3.44,ZA,1619292779
Yaan,7.3833,8.5667,81.01,71,97,8.93,NG,1619292780
São João da Barra,-21.6403,-41.0511,80.6,65,40,9.22,BR,1619292540
Saskylakh,71.9167,114.0833,30.92,94,97,11.72,RU,1619292783
Atuona,-9.8,-139.0333,80.8,70,2,18.92,PF,1619292742
Corsicana,32.0954,-96.4689,73.99,56,75,11.5,US,1619292786
Siljan,59.2884,9.71,44.01,47,35,5.5,NO,1619292787
Hobart,-42.8794,147.3294,50.0,81,40,9.22,AU,1619292508
Port Moresby,-9.4431,147.1797,75.2,94,75,3.44,PG,1619292790
Tuktoyaktuk,69.4541,-133.0374,24.8,80,40,5.75,CA,1619292776
Kapaa,22.0752,-159.319,78.8,69,40,17.27,US,1619292792
Hilo,19.7297,-155.09,71.6,83,90,6.91,US,1619292771
Esim,4.8699,-2.2405,81.54,83,76,9.44,GH,1619292795
Vaitape,-16.5167,-151.75,80.01,74,100,9.55,PF,1619292796
Tucumã,-0.1833,-50.05,81.01,79,91,6.4,BR,1619292799
Cabedelo,-6.9811,-34.8339,82.4,74,20,8.05,BR,1619292802
Adré,13.4667,22.2,86.77,14,100,6.64,TD,1619292804
Barrow,71.2906,-156.7887,21.2,93,1,3.44,US,1619292805
Russellville,35.2784,-93.1338,64.99,63,90,17.27,US,1619292806
Qaanaaq,77.484,-69.3632,27.75,71,85,6.58,GL,1619292808
Caravelas,-17.7125,-39.2481,77.31,78,64,5.77,BR,1619292809
Mataura,-46.1927,168.8643,46.99,91,92,5.01,NZ,1619292811
New Norfolk,-42.7826,147.0587,50.0,85,99,3.0,AU,1619292813
Bagdarin,54.4333,113.6,32.68,53,100,0.92,RU,1619292815
Takahashi,34.7833,133.6167,53.01,91,75,4.38,JP,1619292816
Biltine,14.5333,20.9167,91.04,10,91,7.99,TD,1619292803
Lagoa,39.05,-27.9833,58.93,83,18,26.53,PT,1619292820
Pevek,69.7008,170.3133,21.29,86,100,2.48,RU,1619292821
Troitsko-Pechorsk,62.7084,56.1964,41.92,84,100,6.78,RU,1619292822
Castro,-24.7911,-50.0119,70.23,64,81,1.77,BR,1619292773
Yumen,40.2833,97.2,48.43,37,80,5.91,CN,1619292827
Daru,-9.0763,143.2092,76.8,90,100,6.02,PG,1619292794
Talāja,21.35,72.05,87.15,47,100,7.81,IN,1619292830
Sokna,60.24,9.9235,39.0,56,22,10.0,NO,1619292831
Šilutė,55.3489,21.4831,34.92,85,100,11.79,LT,1619292832
Aitape,-3.1374,142.3475,77.04,87,98,2.8,PG,1619292834
Srednekolymsk,67.45,153.6833,11.95,93,100,8.88,RU,1619292835
Toora-Khem,52.4675,96.11,29.62,84,100,4.27,RU,1619292837
Flinders,-34.5833,150.8552,52.0,80,0,1.01,AU,1619292838
Glazov,58.1394,52.6584,41.99,94,100,9.24,RU,1619292839
Bansko,41.8383,23.4885,42.96,96,100,2.08,BG,1619292841
Bambanglipuro,-7.95,110.2833,74.93,83,21,3.56,ID,1619292842
Ulaangom,49.9811,92.0667,34.32,46,97,18.86,MN,1619292844
Leningradskiy,69.3833,178.4167,25.21,87,100,4.81,RU,1619292845
Paragominas,-2.9667,-47.4833,79.48,92,98,2.66,BR,1619292846
Davila,18.4726,120.5763,71.6,88,20,3.44,PH,1619292848
Havre-St-Pierre,50.2334,-63.5986,46.4,61,75,21.85,CA,1619292584
Avarua,-21.2078,-159.775,80.6,74,20,13.8,CK,1619292850
Chui,-33.6971,-53.4616,69.87,78,100,4.9,UY,1619292732
Cape Town,-33.9258,18.4232,63.0,88,0,6.91,ZA,1619292594
Dingle,10.9995,122.6711,75.78,86,100,1.03,PH,1619292854
Port Alfred,-33.5906,26.891,66.79,86,50,8.55,ZA,1619292855
Shilka,51.85,116.0333,39.45,30,86,3.31,RU,1619292857
Nanortalik,60.1432,-45.2371,41.9,75,100,4.23,GL,1619292858
Isangel,-19.55,169.2667,78.37,78,98,10.98,VU,1619292860
Ekibastuz,51.6667,75.3667,42.44,40,100,10.65,KZ,1619292861
Hithadhoo,-0.6,73.0833,83.16,69,15,7.31,MV,1619292862
Swift Current,50.2834,-107.8014,37.4,32,20,2.3,CA,1619292864
Airai,-8.9266,125.4092,57.2,92,58,2.75,TL,1619292802
Korla,41.7597,86.1469,48.22,33,0,13.53,CN,1619292866
Grindavik,63.8424,-22.4338,44.6,93,90,21.85,IS,1619292868
Khakhea,-24.6895,23.494,68.32,25,0,5.46,BW,1619292869
Kismayo,-0.3582,42.5454,82.13,73,34,12.19,SO,1619292872
Margate,51.3813,1.3862,46.0,74,100,4.0,GB,1619292826
Katsuura,35.1333,140.3,60.01,63,20,11.5,JP,1619292874
Saint Paul Harbor,57.79,-152.4072,44.6,76,90,8.05,US,1619292795
Te Anau,-45.4167,167.7167,48.9,92,100,6.44,NZ,1619292877
São Filipe,14.8961,-24.4956,72.34,75,38,10.51,CV,1619292878
Hermanus,-34.4187,19.2345,63.0,81,100,5.01,ZA,1619292861
Haines Junction,60.7522,-137.5108,46.4,31,16,2.3,CA,1619292874
Ilhabela,-23.7781,-45.3581,74.48,77,30,3.8,BR,1619292883
Akureyri,65.6835,-18.0878,50.0,62,0,9.22,IS,1619292885
Naberera,-4.2,36.9333,62.96,91,97,5.08,TZ,1619292886
Bluff,-46.6,168.3333,46.99,91,96,5.01,NZ,1619292888
Qingdao,36.0986,120.3719,55.4,76,75,4.47,CN,1619292889
Lata,40.1629,-8.3327,66.2,77,20,1.14,PT,1619292891
Puro,12.4841,123.3827,80.22,77,79,2.37,PH,1619292892
Geraldton,-28.7667,114.6,59.0,94,57,2.3,AU,1619292781
Bethel,41.3712,-73.414,69.8,21,1,8.05,US,1619292895
San Cristobal,7.7669,-72.225,89.6,55,40,13.8,VE,1619292897
Pisco,-13.7,-76.2167,73.4,68,0,20.71,PE,1619292873
Maceió,-9.6658,-35.7353,84.2,70,20,10.36,BR,1619292899
Bambous Virieux,-20.3428,57.7575,79.0,83,75,17.27,MU,1619292731
Gorontalo,0.5412,123.0595,73.96,90,36,2.84,ID,1619292903
Hong Kong,22.2855,114.1577,77.0,87,77,1.01,HK,1619292798
Souillac,-20.5167,57.5167,78.8,83,75,17.27,MU,1619292855
Camaná,-16.6228,-72.7111,70.57,71,35,8.28,PE,1619292908
Deputatsky,69.3,139.9,10.33,83,100,3.27,RU,1619292911
Salalah,17.0151,54.0924,82.02,74,51,6.13,OM,1619292875
Puerto Escondido,15.85,-97.0667,89.6,74,75,13.8,MX,1619292915
Bezhetsk,57.7851,36.6965,35.65,97,100,15.1,RU,1619292917
Bima,-8.4667,118.7167,73.76,93,10,2.95,ID,1619292918
Qaqortoq,60.7167,-46.0333,55.4,33,75,25.32,GL,1619292920
Busselton,-33.65,115.3333,52.0,89,0,1.43,AU,1619292921
Esperance,-33.8667,121.9,57.2,77,31,13.8,AU,1619292924
George Town,5.4112,100.3354,82.0,89,40,2.3,MY,1619292659
Skellefteå,64.7507,20.9528,33.01,80,90,16.11,SE,1619292926
Mahébourg,-20.4081,57.7,78.8,83,75,17.27,MU,1619292925
Robāţ Karīm,35.4846,51.0829,73.4,49,40,6.91,IR,1619292929
Øksfjord,70.2396,22.3479,32.0,64,90,11.5,NO,1619292931
Mayo,38.8876,-76.5119,63.0,34,1,11.5,US,1619292932
Padang,-0.9492,100.3543,76.55,87,68,2.53,ID,1619292827
Alofi,-19.0595,-169.9187,77.0,100,69,2.3,NU,1619292917
Saint-Augustin,51.226,-58.6502,40.06,74,91,6.82,CA,1619292936
San Miguel de Tucumán,-26.8241,-65.2226,71.6,73,40,5.75,AR,1619292937
Saldanha,-33.0117,17.9442,60.8,77,91,5.75,ZA,1619292939
Kidal,18.4411,1.4078,92.52,6,0,10.02,ML,1619292941
Pine Bluff,34.2284,-92.0032,66.0,63,90,17.27,US,1619292708
Lorengau,-2.0226,147.2712,81.12,76,93,4.32,PG,1619292794
Sulangan,11.1373,123.7228,80.73,79,100,6.58,PH,1619292945
Carnarvon,-24.8667,113.6333,64.4,82,0,9.22,AU,1619292940
Norman Wells,65.282,-126.8329,35.6,44,75,10.36,CA,1619292948
Smithers,54.7804,-127.1743,50.0,29,40,5.75,CA,1619292949
Cayenne,4.9333,-52.3333,80.6,83,75,5.75,GF,1619292951
Mar del Plata,-38.0023,-57.5575,66.2,55,40,14.97,AR,1619292952
Kuusamo,65.9667,29.1833,33.8,86,90,4.61,FI,1619292954
Arraial do Cabo,-22.9661,-42.0278,78.8,73,20,12.66,BR,1619292955
Zhangzhou,24.5133,117.6556,73.4,68,75,8.95,CN,1619292957
Codrington,-38.2667,141.9667,50.83,89,96,4.9,AU,1619292761
Cockburn Town,21.4612,-71.1419,82.4,65,40,11.5,TC,1619292771
Saint-Pierre,-21.3393,55.4781,77.0,83,75,25.32,RE,1619292960
Mehrān,33.1222,46.1646,64.4,19,0,9.66,IR,1619292962
Ribeira Grande,38.5167,-28.7,59.0,72,75,19.57,PT,1619292963
Najrān,17.4924,44.1277,82.4,24,75,11.5,SA,1619292923
Les Cayes,18.2,-73.75,83.17,63,6,10.51,HT,1619292966
Pangody,65.85,74.4859,28.53,93,91,6.26,RU,1619292967
Mahon,39.8885,4.2658,57.2,82,0,6.91,ES,1619292969
Minyar,55.0709,57.5485,41.43,97,100,3.56,RU,1619292971
Sittwe,20.15,92.9,79.52,75,51,8.61,MM,1619292973
Upernavik,72.7868,-56.1549,34.36,85,11,6.11,GL,1619292873
Presidencia Roque Sáenz Peña,-26.7852,-60.4388,69.6,89,78,8.28,AR,1619292976
Alta Floresta,-9.8756,-56.0861,86.0,66,75,4.61,BR,1619292978
Prince Rupert,54.3161,-130.3201,51.8,71,1,4.61,CA,1619292737
Stornoway,58.2093,-6.3865,50.0,81,82,10.36,GB,1619292981
Severo-Kuril'sk,50.6789,156.125,34.7,97,100,5.99,RU,1619292983
Bloomingdale,27.8936,-82.2404,89.01,51,75,18.41,US,1619292865
Iqaluit,63.7506,-68.5145,33.8,80,40,3.44,CA,1619292871
Hasaki,35.7333,140.8333,48.2,93,20,4.61,JP,1619292987
Tasiilaq,65.6145,-37.6368,37.4,75,75,1.14,GL,1619292746
San Patricio,28.017,-97.5169,96.8,11,1,16.11,US,1619292978
Viedma,-40.8135,-62.9967,61.88,56,95,14.5,AR,1619292992
Addis Ababa,9.025,38.7469,62.91,59,92,4.23,ET,1619292993
Maku,39.2911,44.4521,61.32,19,1,5.99,IR,1619292996
Basco,20.4487,121.9702,75.79,73,42,10.42,PH,1619292998
Petropavlovsk-Kamchatskiy,53.0452,158.6483,33.8,100,90,4.47,RU,1619292999
Kenai,60.5544,-151.2583,46.4,65,1,5.75,US,1619292795
Lavrentiya,65.5833,-171.0,30.52,84,92,1.28,RU,1619292915
Varzelândia,-15.7014,-44.0275,85.87,29,4,1.88,BR,1619293003
Olafsvik,64.8945,-23.7142,44.1,83,100,18.61,IS,1619292875
Tuy Hoa,13.0833,109.3,77.86,84,8,3.0,VN,1619293006
Takoradze,4.8845,-1.7554,81.93,81,74,10.36,GH,1619293007
Umm Kaddadah,13.6017,26.6876,87.35,13,47,13.42,SD,1619293009
Vráble,48.2437,18.3085,46.0,67,29,1.99,SK,1619293010
Cairns,-16.9167,145.7667,73.4,100,90,8.05,AU,1619293012
Baswa,27.15,76.5833,78.87,13,20,7.56,IN,1619293013
Lebu,-37.6167,-73.65,57.16,71,0,16.91,CL,1619293015
Cherskiy,68.75,161.3,16.65,95,91,11.16,RU,1619292801
Sirte,31.2089,16.5887,62.82,79,0,16.71,LY,1619293017
Sørland,67.667,12.6934,36.97,67,61,25.14,NO,1619293019
Kargasok,59.0556,80.8572,35.28,98,100,3.8,RU,1619293022
Harper,4.375,-7.7169,82.13,79,92,10.65,LR,1619292928
Soyo,-6.1349,12.3689,79.48,82,100,3.67,AO,1619293026
Yangi Marg`ilon,40.4272,71.7189,60.8,48,53,4.61,UZ,1619292917
Mount Gambier,-37.8333,140.7667,51.8,93,75,4.61,AU,1619293028
Kaitangata,-46.2817,169.8464,46.99,86,28,3.0,NZ,1619292797
Clones,54.1833,-7.2333,43.21,84,3,4.68,IE,1619293031
Vestmannaeyjar,63.4427,-20.2734,44.6,87,90,19.57,IS,1619293034
Mossamedes,-15.1961,12.1522,78.91,76,0,7.67,AO,1619293035
Labuhan,-6.8844,112.2051,76.96,84,20,5.88,ID,1619292838
Matagami,49.7502,-77.6328,32.0,74,90,12.66,CA,1619293038
Turtas,58.9417,69.1325,43.34,55,100,4.99,RU,1619292910
Vehari,30.0333,72.35,77.68,22,2,4.09,PK,1619293041
Cidreira,-30.1811,-50.2056,72.5,77,24,11.1,BR,1619293042
Hambantota,6.1241,81.1185,77.0,100,20,2.3,LK,1619292775
Sijunjung,-0.6876,100.9537,71.19,97,100,2.53,ID,1619293045
Husavik,66.0449,-17.3389,50.0,62,0,9.22,IS,1619293048
Lázaro Cárdenas,17.9583,-102.2,85.12,52,100,10.69,MX,1619293049
Port Elizabeth,-33.918,25.5701,57.2,100,0,8.05,ZA,1619293050
Atbasar,51.8,68.3333,45.86,41,100,14.9,KZ,1619293052
Dryden,49.7833,-92.7503,35.6,23,1,6.91,CA,1619293055
Poronaysk,49.2167,143.1167,30.2,91,100,4.68,RU,1619293056
Bud,39.447,-86.1758,52.0,91,100,5.95,US,1619293058
Kieta,-6.2167,155.6333,78.73,82,51,0.67,PG,1619293059
Teya,60.3778,92.6267,32.4,98,100,1.57,RU,1619293061
Tual,-5.6667,132.75,84.56,65,100,15.86,ID,1619293062
Mitú,1.1983,-70.1733,87.3,59,100,3.13,CO,1619292801
Tubualá,9.5167,-79.0333,87.8,66,40,4.61,PA,1619293065
Fairbanks,64.8378,-147.7164,51.8,32,1,5.75,US,1619292778
Portland,45.5234,-122.6762,50.0,81,90,9.22,US,1619292624
Mackay,-21.15,149.2,68.0,100,90,6.91,AU,1619293069
Elko,41.0002,-115.5012,62.01,24,100,21.99,US,1619293070
Aripuanã,-9.1667,-60.6333,81.75,89,81,1.1,BR,1619293071
Upington,-28.4478,21.2561,69.8,26,0,2.3,ZA,1619293073
Annau,37.8876,58.516,69.8,52,40,2.3,TM,1619293074
Waitara,-38.925,174.25,51.01,84,38,8.99,NZ,1619293076
Carutapera,-1.195,-46.02,80.47,81,100,5.48,BR,1619293077
Pimenteiras,-6.2453,-41.4192,83.73,62,99,4.18,BR,1619293080
Kalat,29.0225,66.5916,61.38,30,0,5.5,PK,1619293082
Iberia,29.9502,-91.7507,82.4,69,75,14.97,US,1619293083
Borogontsy,62.6683,131.1683,12.7,98,100,2.57,RU,1619293085
Beitbridge,-22.2167,30.0,73.76,28,0,7.78,ZW,1619293086
Lüderitz,-26.6481,15.1594,63.7,78,14,2.08,NA,1619293088
Saint-Philippe,-21.3585,55.7679,77.0,83,75,25.32,RE,1619293089
Marsh Harbour,26.5412,-77.0636,77.18,72,53,17.4,BS,1619292927
Clyde River,70.4692,-68.5914,17.6,100,75,9.22,CA,1619293092
Liwale,-9.7667,37.9333,69.06,98,72,7.58,TZ,1619293094
Xining,36.6167,101.7667,40.48,86,100,2.26,CN,1619293095
Morón,-34.6534,-58.6198,73.99,53,40,9.22,AR,1619293096
Evensk,61.95,159.2333,19.96,78,100,11.56,RU,1619292943
Mazatlán,23.2167,-106.4167,86.0,16,40,6.91,MX,1619293099
Weyburn,49.6668,-103.8511,42.8,26,46,4.61,CA,1619293101
Alanya,36.5438,31.9998,64.4,63,20,3.44,TR,1619293102
Meulaboh,4.1363,96.1285,75.69,85,100,2.51,ID,1619293104
Fort Nelson,58.8053,-122.7002,42.8,28,40,4.61,CA,1619293105
Aksarayskiy,46.7924,48.0119,59.0,67,0,11.18,RU,1619293107
Coxim,-18.5067,-54.76,95.05,20,100,6.89,BR,1619293108
Omagh,54.6,-7.3,43.92,83,5,4.52,GB,1619292968
Malindi,-3.2175,40.1191,82.4,89,75,6.91,KE,1619293111
Ust-Maya,60.4167,134.5333,18.21,96,90,3.09,RU,1619293112
Touros,-5.1989,-35.4608,82.4,74,20,11.5,BR,1619292992
Andenes,69.3143,16.1194,35.01,64,20,8.05,NO,1619293115
Buchanan,5.8808,-10.0467,86.0,79,40,6.91,LR,1619293117
Kluang,2.0251,103.3328,77.0,94,20,1.9,MY,1619293120
Banda Aceh,5.5577,95.3222,79.7,74,100,10.71,ID,1619293121
Alice Springs,-23.7,133.8833,46.4,71,0,5.75,AU,1619293123
Vung Tau,10.346,107.0843,82.38,75,94,6.4,VN,1619293124
Havelock,34.8791,-76.9013,66.99,59,75,9.22,US,1619293126
Skibbereen,51.55,-9.2667,53.6,54,40,13.8,IE,1619293128
Mpika,-11.8343,31.4529,58.96,91,15,3.44,ZM,1619293130
Caçu,-18.5567,-51.1308,87.85,23,17,1.92,BR,1619293132
Vostok,46.4856,135.8833,24.85,51,9,6.31,RU,1619293090
Port Blair,11.6667,92.75,81.41,74,4,5.73,IN,1619293135
Cabo San Lucas,22.8909,-109.9124,82.0,43,1,5.75,MX,1619293136
Egvekinot,66.3167,-179.1667,24.24,93,86,3.11,RU,1619293138
Bengkulu,-3.8004,102.2655,75.27,88,100,3.51,ID,1619292858
Yuli,9.6989,10.2744,87.01,53,92,11.3,NG,1619293141
Thompson,55.7435,-97.8558,24.8,54,75,5.75,CA,1619292928
Pontal do Paraná,-25.6533,-48.5128,72.0,47,3,4.07,BR,1619293143
San Quintín,30.4833,-115.95,64.38,66,21,18.25,MX,1619293145
Sioux Lookout,50.1001,-91.917,37.4,32,40,9.22,CA,1619293146
Zaragoza,41.6561,-0.8773,64.0,67,40,10.36,ES,1619293058
Torbay,47.6666,-52.7314,53.6,35,40,28.77,CA,1619292928
Anadyr,64.75,177.4833,32.0,93,75,11.18,RU,1619293029
Malbork,54.0359,19.0266,39.0,38,0,5.35,PL,1619292871
Broken Hill,-31.95,141.4333,46.4,71,0,4.61,AU,1619293153
Constitución,-35.3333,-72.4167,64.29,59,6,15.9,CL,1619292997
Abu Dhabi,24.4667,54.3667,82.4,65,0,4.61,AE,1619292941
Sola,-13.8833,167.55,82.65,76,100,17.94,VU,1619293157
Yellowknife,62.456,-114.3525,19.0,53,75,11.5,CA,1619292870
Outlook,51.5001,-107.0513,44.01,28,98,2.3,CA,1619293160
Saint Anthony,45.0205,-93.218,46.0,53,75,10.36,US,1619293162
Weihe,32.9952,105.3247,49.6,86,99,3.31,CN,1619293163
Vila Franca do Campo,37.7167,-25.4333,59.0,82,75,9.22,PT,1619293165
Sjenica,43.2731,19.9994,35.82,88,2,3.67,RS,1619293166
Kinablangan,7.6947,126.5503,78.19,80,61,4.23,PH,1619293168
Kulhudhuffushi,6.6221,73.07,83.41,72,18,3.89,MV,1619293169
Bay Roberts,47.5999,-53.2648,53.6,35,40,28.77,CA,1619293171
Ancud,-41.8697,-73.8203,61.0,77,75,9.22,CL,1619293172
Aklavik,68.2191,-135.0107,37.4,52,20,2.3,CA,1619292927
Magadan,59.5667,150.8,16.18,68,95,11.39,RU,1619292913
Cravo Norte,6.3017,-70.2041,99.7,27,74,9.19,CO,1619293176
Olean,42.0776,-78.4297,61.0,30,1,6.91,US,1619293177
São Lourenço do Sul,-31.3653,-51.9783,75.2,64,40,8.05,BR,1619293179
Kutum,14.2,24.6667,83.01,14,90,11.07,SD,1619292928
Trelew,-43.249,-65.3051,62.47,38,27,4.32,AR,1619292927
Shihezi,44.3,86.0333,40.21,35,0,4.41,CN,1619293183
Shache,38.4167,77.2406,60.57,11,100,3.06,CN,1619293018
Saratoga Springs,43.0831,-73.7846,68.0,25,88,4.0,US,1619292991
Gusau,12.1628,6.6614,82.36,51,100,18.16,NG,1619293188
Nishifukuma,33.7667,130.4667,57.2,88,10,4.61,JP,1619293189
Bataiporã,-22.2953,-53.2711,88.77,25,80,4.38,BR,1619293191
Maumere,-8.6199,122.2111,78.67,78,10,4.45,ID,1619293177
Ilām,26.9167,87.9167,66.67,39,55,6.6,NP,1619293194
Ilulissat,69.2167,-51.1,41.0,60,40,6.91,GL,1619293143
Kununurra,-15.7667,128.7333,57.2,77,8,2.3,AU,1619293033
Sitka,57.0531,-135.33,57.2,30,1,1.79,US,1619293197
Parabel',58.6978,81.4825,34.59,95,100,5.59,RU,1619293199
Lenzburg,47.3885,8.175,57.2,44,0,2.3,CH,1619293201
Manicoré,-5.8092,-61.3003,85.32,73,98,2.62,BR,1619293203
Újfehértó,47.8,21.6833,50.0,53,39,3.44,HU,1619293204
Santa Helena,-2.2311,-45.3,79.77,90,100,3.02,BR,1619293206
Roald,62.5833,6.1333,35.6,75,75,2.3,NO,1619293207
Kavieng,-2.5744,150.7967,81.01,78,68,7.7,PG,1619293209
Shelburne,44.0787,-80.2041,64.0,29,100,7.27,CA,1619293212
Ponta Delgada,37.7333,-25.6667,59.0,82,75,9.22,PT,1619293213
Maibong,25.3,93.1667,71.47,34,20,1.92,IN,1619293215
Nabire,-3.3667,135.4833,74.46,94,100,3.6,ID,1619293216
Pacific Grove,36.6177,-121.9166,60.8,55,20,8.05,US,1619293217
Arrondissement de Muret,43.3333,1.25,64.4,36,0,18.41,FR,1619293219
La Palma,33.8464,-118.0467,68.0,67,90,8.05,US,1619293109
Iwanai,42.9744,140.5089,41.79,94,100,8.75,JP,1619293222
Pahrump,36.2083,-115.9839,79.0,18,99,4.0,US,1619293024
Guerrero Negro,27.9769,-114.0611,67.95,56,3,16.49,MX,1619293004
Cobija,-11.0267,-68.7692,89.6,62,40,11.5,BO,1619293226
Vallenar,-28.5708,-70.7581,75.65,35,0,6.76,CL,1619293140
Ucluelet,48.9329,-125.5528,48.99,93,90,9.22,CA,1619292985
Sobolevo,54.4299,31.8996,34.48,78,94,11.14,RU,1619293231
Blagoyevo,63.3667,47.9167,44.89,72,60,6.04,RU,1619293232
Datong,40.0936,113.2914,50.25,63,100,5.12,CN,1619293234
Turukhansk,65.8167,87.9833,31.37,99,100,4.76,RU,1619293235
Baley,51.6,116.6333,33.84,36,97,3.89,RU,1619293236
Kiunga,-6.1219,141.2906,72.57,98,100,5.91,PG,1619293238
Dunedin,-45.8742,170.5036,48.99,73,79,8.01,NZ,1619293240
Podor,16.6527,-14.9587,98.6,19,0,4.61,MR,1619293241
Fortuna,40.5982,-124.1573,55.4,71,40,17.27,US,1619293075
Greymouth,-42.4667,171.2,47.7,89,44,3.31,NZ,1619293245
Kahului,20.8947,-156.47,75.2,83,40,17.27,US,1619293184
Amarillo,35.222,-101.8313,71.01,30,1,4.34,US,1619293006
Bulgan,48.8125,103.5347,31.68,96,100,4.52,MN,1619293250
Gwanda,-20.9333,29.0,62.74,36,0,3.58,ZW,1619293251
Hailun,47.45,126.9333,39.65,41,6,10.0,CN,1619293253
Provideniya,64.3833,-173.3,37.02,80,99,0.54,RU,1619293254
Lompoc,34.6391,-120.4579,61.0,67,85,8.05,US,1619293256
Oeiras do Pará,-2.0031,-49.8544,85.44,69,72,3.33,BR,1619293258
Saint-Joseph,-21.3667,55.6167,78.8,83,20,26.46,RE,1619293259
Broome,42.2506,-75.833,64.99,29,1,5.1,US,1619293261
Whitehorse,60.7161,-135.0538,46.0,36,1,8.05,CA,1619293262
Vanimo,-2.6741,141.3028,76.53,87,100,3.78,PG,1619293264
Ahipara,-35.1667,173.1667,59.59,76,20,7.67,NZ,1619293265
Tautira,-17.7333,-149.15,84.2,65,75,9.22,PF,1619293267
Coquimbo,-29.9533,-71.3436,62.6,67,20,12.66,CL,1619293268
Camalú,30.85,-116.0667,66.0,41,54,10.0,MX,1619293271
Hamilton,39.1834,-84.5333,52.0,82,90,3.44,US,1619293133
Taseyevo,57.2169,94.8978,33.08,96,100,3.67,RU,1619293274
Mehamn,71.0357,27.8492,32.22,73,91,9.19,NO,1619293275
Kroya,-7.6331,109.2461,77.36,80,25,3.49,ID,1619293277
Canary Islands,28.0,-15.5,69.01,77,75,13.8,ES,1619293278
Santa Maria,-29.6842,-53.8069,66.2,100,90,4.61,BR,1619293280
Aketi,2.7388,23.7833,70.38,94,100,0.76,CD,1619293281
Port-Gentil,-0.7193,8.7815,82.4,83,40,5.75,GA,1619293283
Tessalit,20.1986,1.0114,92.03,6,0,8.41,ML,1619293284
Oyama,36.3,139.8,62.01,93,40,1.14,JP,1619293286
Mbengwi,6.0167,10.0,66.09,97,100,1.32,CM,1619293289
Puri,19.8,85.85,80.6,83,20,16.82,IN,1619293290
Plekhanovo,52.6271,39.8568,35.65,88,39,17.49,RU,1619293292
Cap Malheureux,-19.9842,57.6142,79.0,82,100,8.99,MU,1619293293
Faanui,-16.4833,-151.75,80.01,74,100,9.78,PF,1619293295
Kruisfontein,-34.0033,24.7314,59.0,92,96,3.38,ZA,1619293296
Tigzirt,36.8886,4.1198,63.03,76,82,15.66,DZ,1619293252
Gland,46.4208,6.2701,59.0,41,20,3.44,CH,1619293300
Hoi An,15.8794,108.335,80.6,89,40,2.3,VN,1619293301
‘Āhuimanu,21.4447,-157.8378,80.6,65,40,14.97,US,1619293252
Webuye,0.6075,34.7697,64.4,88,75,3.44,KE,1619293305
Lufilufi,-13.8745,-171.5986,80.6,78,20,4.61,WS,1619293307
Semporna,4.4818,118.6112,75.2,94,20,1.36,MY,1619293308
Leticia,-4.2153,-69.9406,80.6,89,40,3.44,CO,1619293310
Plover,44.4564,-89.544,50.0,71,90,6.91,US,1619293311
Hede,33.7681,120.2517,56.12,96,100,7.99,CN,1619293313
Christchurch,-43.5333,172.6333,50.0,100,90,2.3,NZ,1619293314
Yining,29.0361,114.5636,60.3,96,100,3.85,CN,1619293316
Hearst,49.6835,-83.6665,26.6,80,100,9.22,CA,1619293318
Faya,18.3851,42.4509,59.0,67,75,9.22,SA,1619293035
Gobabis,-22.45,18.9667,63.48,26,0,9.91,NA,1619293320
Zhangaözen,43.3,52.8,63.84,29,5,10.09,KZ,1619293322
São José da Coroa Grande,-8.8978,-35.1478,80.15,77,16,7.34,BR,1619293323
Maseru,-29.3167,27.4833,50.02,23,3,3.24,LS,1619293325
Mahrīz,31.5917,54.4318,82.4,21,75,13.8,IR,1619293326
Ossora,59.2353,163.0719,31.06,97,100,3.27,RU,1619293328
Rongcheng,30.634,117.8517,59.13,95,100,4.32,CN,1619293329
Manaus,-3.1019,-60.025,84.2,74,40,5.75,BR,1619293096
Lüshunkou,38.8,121.2667,51.8,58,0,6.71,CN,1619293332
Saint-François,46.4154,3.9054,62.6,48,0,8.05,FR,1619293335
Muromtsevo,56.3724,75.2418,38.23,62,100,4.72,RU,1619293336
Bucak,37.4592,30.595,64.4,55,40,6.91,TR,1619293339
Behbahān,30.5959,50.2417,77.0,23,0,0.49,IR,1619293341
Maneromango,-7.1988,38.7848,70.65,95,100,7.16,TZ,1619293342
Puerto Quijarro,-17.7833,-57.7667,95.68,29,100,4.81,BO,1619293344
Ankazoabo,-22.2833,44.5167,70.25,66,21,3.18,MG,1619293345
Saryozek,44.3583,77.9753,40.53,35,100,3.98,KZ,1619293347
Beringovskiy,63.05,179.3167,30.87,93,100,5.93,RU,1619293348
Songjianghe,42.1859,127.479,29.35,52,0,0.83,CN,1619293350
Bandarbeyla,9.4942,50.8122,83.41,76,74,7.96,SO,1619293351
Colesberg,-30.72,25.0972,60.22,28,55,6.33,ZA,1619293353
Develi,38.3906,35.4922,57.2,51,0,5.75,TR,1619293354
Keskin,39.6731,33.6136,60.01,53,91,6.38,TR,1619293356
Sambava,-14.2667,50.1667,75.38,88,30,9.06,MG,1619293358
The Hammocks,25.6715,-80.4445,87.01,65,75,16.11,US,1619293359
Kysyl-Syr,63.8986,122.7617,32.85,95,100,5.14,RU,1619293361
Da Lat,11.9465,108.4419,60.46,94,11,1.07,VN,1619293362
San Andrés,12.5847,-81.7006,87.8,58,20,9.22,CO,1619293364
Puksoozero,62.5903,40.6066,45.61,75,32,7.54,RU,1619293365
Grand Gaube,-20.0064,57.6608,79.0,82,100,8.99,MU,1619293366
Simbahan,6.3032,120.5836,82.42,69,69,3.06,PH,1619293368
Sapa,5.1544,120.3241,79.93,80,100,1.34,PH,1619293370
Lakhdenpokh'ya,61.5198,30.1992,35.01,86,100,3.83,RU,1619293372
Peace River,56.2501,-117.286,35.6,32,75,18.41,CA,1619293373
Henderson,36.0397,-114.9819,84.0,14,1,31.07,US,1619293374
Porangatu,-13.4408,-49.1486,84.94,64,8,0.43,BR,1619293376
Talcahuano,-36.7167,-73.1167,64.4,63,0,11.5,CL,1619293216
Fuling,29.7022,107.3919,63.75,92,100,3.33,CN,1619293379
Macas,-2.3167,-78.1167,78.8,65,75,5.75,EC,1619293380
Linhares,-19.3911,-40.0722,76.39,77,95,4.29,BR,1619293381
Tabou,4.423,-7.3528,81.88,80,88,10.2,CI,1619293383
Arlit,18.7369,7.3853,90.45,8,5,2.13,NE,1619293384
Poum,-20.2333,164.0167,78.22,81,92,15.48,NC,1619293385
Makat,47.6469,53.3463,56.37,61,32,11.97,KZ,1619293387
Longyearbyen,78.2186,15.6401,24.8,68,75,4.61,SJ,1619293356
Kalmunai,7.4167,81.8167,79.48,77,18,1.66,LK,1619293389
Luganville,-15.5333,167.1667,80.62,84,79,7.31,VU,1619293391
Yulara,-25.2406,130.9889,51.8,62,35,6.91,AU,1619293392
Kyaikkami,16.08,97.5675,83.77,74,100,9.35,MM,1619293393
Puerto Madero,14.7208,-92.4215,84.2,65,90,5.75,MX,1619293395
College,64.8569,-147.8028,51.8,32,20,0.78,US,1619293264
Manoel Urbano,-8.8389,-69.2597,87.85,56,6,4.56,BR,1619293397
Al Bardīyah,31.7561,25.0865,68.92,55,38,12.17,LY,1619293399
Lodja,-3.4833,23.4333,69.21,91,94,2.37,CD,1619293400
Château-Thierry,49.05,3.4,55.4,54,0,12.66,FR,1619293402
Baykit,61.67,96.37,32.67,96,100,2.51,RU,1619293403
Sibolga,1.7427,98.7792,75.13,90,100,5.26,ID,1619293404
Ust-Nera,64.5667,143.2,-3.1,92,19,1.39,RU,1619293407
Tamiahua,21.2667,-97.45,86.14,63,100,18.7,MX,1619293408
Laguna,38.421,-121.4238,69.01,37,20,10.36,US,1619293410
Talnakh,69.4865,88.3972,30.47,97,100,16.17,RU,1619293411
Kingaroy,-26.5333,151.8333,42.8,100,2,3.44,AU,1619293412
Oga,46.4631,10.347,61.0,69,0,3.44,IT,1619293414
Torit,4.4133,32.5678,74.14,76,98,3.62,SS,1619293415
Rio Piracicaba,-19.9292,-43.1742,74.55,68,36,3.44,BR,1619293417
Ambilobe,-13.2,49.05,73.44,93,30,3.51,MG,1619293418
Manassas,38.751,-77.4753,63.0,34,1,6.91,US,1619293160
Kirkenær,60.4564,12.0582,37.4,48,0,6.91,NO,1619293420
Port Keats,-14.25,129.55,69.08,33,78,8.5,AU,1619293422
Pudozh,61.8099,36.5345,38.71,97,100,3.78,RU,1619293423
Río Tercero,-32.173,-64.1141,69.01,44,0,11.01,AR,1619293425
Puerto Nariño,-3.7703,-70.3831,80.6,89,40,3.44,CO,1619293426
Birao,10.2849,22.7882,83.16,44,12,5.7,CF,1619293427
Majene,-3.5403,118.9707,77.23,86,84,3.83,ID,1619293429
Donskoye,45.4552,41.9741,50.0,62,40,8.95,RU,1619293430
Kem',64.9555,34.5793,34.52,97,100,12.35,RU,1619293432
Raja,8.4596,25.678,81.19,53,100,7.43,SS,1619293434
Tazovsky,67.4667,78.7,30.9,91,100,9.26,RU,1619293405
Lahaina,20.8783,-156.6825,75.2,83,40,17.27,US,1619293438
Nyurba,63.2842,118.3319,30.07,92,100,3.71,RU,1619293439
Portel,-1.9356,-50.8211,83.39,77,44,4.41,BR,1619293441
Lumut,4.2323,100.6298,77.0,94,20,2.57,MY,1619293442
Boa Vista,2.8197,-60.6733,89.6,51,75,8.05,BR,1619293443
Bonavista,48.6499,-53.1147,48.2,53,90,14.97,CA,1619293445
Tiarei,-17.5333,-149.3333,84.2,65,75,9.22,PF,1619293448
Karratha,-20.7377,116.8463,77.88,35,0,8.43,AU,1619293449
Kawalu,-7.3817,108.2082,70.41,95,98,1.32,ID,1619293445
Florida,28.7505,-82.5001,88.0,58,1,9.22,US,1619293251
Hobyo,5.3505,48.5268,84.18,69,76,12.33,SO,1619293454
Graciano Sánchez,23.9167,-99.2833,95.0,16,20,10.36,MX,1619293455
Zabul Province,32.25,67.25,63.93,10,0,8.14,AF,1619293457
Dawson,31.7735,-84.4466,64.4,100,90,6.91,US,1619293278
San Juan,-31.5375,-68.5364,73.67,26,0,9.37,AR,1619293314
Balkanabat,39.5108,54.3671,70.48,48,58,5.1,TM,1619293460
Khāsh,28.2211,61.2158,71.8,9,100,3.29,IR,1619293462
Panalingaan,8.7842,117.4231,78.21,84,78,1.48,PH,1619293463
Bowen,-20.0167,148.2333,69.8,88,90,11.5,AU,1619293464
Juneau,58.3019,-134.4197,53.6,35,20,9.22,US,1619293466
Urdoma,61.7533,48.5442,45.43,79,61,7.83,RU,1619293467
Oranjemund,-28.55,16.4333,59.18,90,11,0.54,NA,1619293468
Narsaq,60.9167,-46.05,55.4,33,75,25.32,GL,1619293471
Qui Nhon,13.7667,109.2333,79.36,84,8,3.11,VN,1619293472
Vanavara,60.34,102.2797,30.24,97,100,2.24,RU,1619293381
Lingao,19.9103,109.6859,77.97,85,10,8.12,CN,1619293475
Valparaíso,-33.0393,-71.6273,68.0,56,0,6.91,CL,1619293332
Kumul,42.8,93.45,46.13,25,94,8.93,CN,1619293478
Forsytheganj,52.6333,29.7333,34.56,75,78,9.35,BY,1619293479
Khipro,25.8285,69.3772,86.22,18,0,5.57,PK,1619293480
Salym,60.0625,71.4789,38.7,78,100,4.54,RU,1619293237
Eyl,7.9803,49.8164,83.16,74,68,8.57,SO,1619293259
Zhigansk,66.7697,123.3711,32.83,98,100,8.68,RU,1619293484
Morgantown,39.6295,-79.9559,60.8,36,90,4.61,US,1619293358
Asadābād,34.7824,48.1185,59.72,27,0,4.12,IR,1619293487
Maragogi,-9.0122,-35.2225,79.59,80,21,7.18,BR,1619293488
Hīt,33.6416,42.8251,85.39,10,90,6.64,IQ,1619293489
Hare Bay,48.8499,-54.0148,48.2,53,100,14.97,CA,1619293491
Rome,43.2128,-75.4557,66.2,24,1,12.66,US,1619293414
Nouadhibou,20.931,-17.0347,69.8,78,0,20.71,MR,1619293493
Atambua,-9.1061,124.8925,70.52,87,10,4.94,ID,1619293496
Wajima,37.4,136.9,53.24,78,100,4.43,JP,1619293498
Conceição do Araguaia,-8.2578,-49.2647,89.6,62,20,6.91,BR,1619293500
Maningrida,-12.0667,134.2667,67.57,85,72,6.89,AU,1619293501
Pochutla,15.7432,-96.4661,91.99,55,40,17.27,MX,1619293503
Santa Helena de Goiás,-17.8136,-50.5969,84.18,33,10,3.36,BR,1619293505
Teahupoo,-17.8333,-149.2667,84.2,65,75,9.22,PF,1619293506
Huarmey,-10.0681,-78.1522,73.02,73,7,12.48,PE,1619293508
Mabaruma,8.2,-59.7833,78.04,87,99,7.34,GY,1619293509
Nioro,13.35,-15.75,83.95,33,36,12.35,GM,1619293510
Opuwo,-18.0607,13.84,71.56,42,71,2.26,NA,1619293512
Baracoa,20.3467,-74.4958,84.4,63,19,9.4,CU,1619293513
Phang Nga,8.4509,98.5298,84.0,94,20,6.91,TH,1619293514
Werda,-25.2667,23.2833,69.24,25,0,2.57,BW,1619293516
Pemangkat,1.1667,108.9667,78.55,84,69,5.17,ID,1619293391
Bilma,18.6853,12.9164,92.23,10,2,9.82,NE,1619293518
Puerto Carreño,6.189,-67.4859,94.51,42,63,8.7,CO,1619293520
Kangaatsiaq,68.3065,-53.4641,33.67,81,7,11.83,GL,1619293521
Banting,2.8167,101.5,80.6,94,20,1.14,MY,1619293522
New Milford,40.9327,-74.0179,71.6,23,1,5.75,US,1619293524
Kathmandu,27.7167,85.3167,60.8,59,20,4.61,NP,1619293459
Konosha,60.9736,40.257,44.89,76,56,7.9,RU,1619293526
Ayr,55.4627,-4.6339,55.4,58,0,12.66,GB,1619293528
Manakara,-22.1333,48.0167,70.45,91,32,2.89,MG,1619293529
Berekum,7.4534,-2.584,72.63,94,79,8.77,GH,1619293531
Beeskow,52.1667,14.25,48.0,56,100,1.99,DE,1619293532
